{"type":"FeatureCollection","features":[{"type":"Feature","properties":{"Locid":"ATL","City":"Atlanta","CY14_Enplanements":46604273,"CY13_Enplanements":45308407,"CY12_Enplanements":45798928,"CY11_Enplanements":44414121,"CY10_Enplanements":43130585,"CY09_Enplanements":42280868,"CY08_Enplanements":43761280,"Rank":1,"FAA-Region":"SO","ST":"GA","AirportName":"Hartsfield - Jackson Atlanta International"},"geometry":{"type":"Point","coordinates":[-84.5718,33.3573]}},{"type":"Feature","properties":{"Locid":"LAX","City":"Los Angeles","CY14_Enplanements":34314197,"CY13_Enplanements":32425892,"CY12_Enplanements":31326268,"CY11_Enplanements":30528737,"CY10_Enplanements":28857755,"CY09_Enplanements":27439897,"CY08_Enplanements":28861477,"Rank":2,"FAA-Region":"WP","ST":"CA","AirportName":"Los Angeles International"},"geometry":{"type":"Point","coordinates":[-118.4081,33.9425]}},{"type":"Feature","properties":{"Locid":"ORD","City":"Chicago","CY14_Enplanements":33843426,"CY13_Enplanements":32317835,"CY12_Enplanements":32171795,"CY11_Enplanements":31892301,"CY10_Enplanements":32171831,"CY09_Enplanements":31135732,"CY08_Enplanements":33683991,"Rank":3,"FAA-Region":"GL","ST":"IL","AirportName":"Chicago O'Hare International"},"geometry":{"type":"Point","coordinates":[-87.9048,41.9786]}},{"type":"Feature","properties":{"Locid":"DFW","City":"Fort Worth","CY14_Enplanements":30804567,"CY13_Enplanements":29038128,"CY12_Enplanements":28022904,"CY11_Enplanements":27518358,"CY10_Enplanements":27100656,"CY09_Enplanements":26663984,"CY08_Enplanements":27219285,"Rank":4,"FAA-Region":"SW","ST":"TX","AirportName":"Dallas/Fort Worth International"},"geometry":{"type":"Point","coordinates":[-97.038,32.8968]}},{"type":"Feature","properties":{"Locid":"JFK","City":"New York","CY14_Enplanements":26244928,"CY13_Enplanements":25036358,"CY12_Enplanements":24520981,"CY11_Enplanements":23664832,"CY10_Enplanements":22934047,"CY09_Enplanements":22710272,"CY08_Enplanements":23620948,"Rank":5,"FAA-Region":"EA","ST":"NY","AirportName":"John F Kennedy International"},"geometry":{"type":"Point","coordinates":[-73.7789,40.6398]}},{"type":"Feature","properties":{"Locid":"DEN","City":"Denver","CY14_Enplanements":26000591,"CY13_Enplanements":25496885,"CY12_Enplanements":25799841,"CY11_Enplanements":25667499,"CY10_Enplanements":25241932,"CY09_Enplanements":24013669,"CY08_Enplanements":24117623,"Rank":6,"FAA-Region":"NM","ST":"CO","AirportName":"Denver International"},"geometry":{"type":"Point","coordinates":[-104.6732,39.8617]}},{"type":"Feature","properties":{"Locid":"SFO","City":"San Francisco  ","CY14_Enplanements":22770783,"CY13_Enplanements":21704626,"CY12_Enplanements":21284236,"CY11_Enplanements":20056568,"CY10_Enplanements":19359003,"CY09_Enplanements":18467908,"CY08_Enplanements":17280328,"Rank":7,"FAA-Region":"WP","ST":"CA","AirportName":"San Francisco International"},"geometry":{"type":"Point","coordinates":[-122.3749,37.619]}},{"type":"Feature","properties":{"Locid":"CLT","City":"Charlotte","CY14_Enplanements":21537725,"CY13_Enplanements":21346601,"CY12_Enplanements":20033816,"CY11_Enplanements":19022535,"CY10_Enplanements":18629181,"CY09_Enplanements":17165376,"CY08_Enplanements":16584780,"Rank":8,"FAA-Region":"SO","ST":"NC","AirportName":"Charlotte/Douglas International"},"geometry":{"type":"Point","coordinates":[-80.9431,35.214]}},{"type":"Feature","properties":{"Locid":"LAS","City":"Las Vegas","CY14_Enplanements":20620248,"CY13_Enplanements":19946179,"CY12_Enplanements":19959651,"CY11_Enplanements":19872617,"CY10_Enplanements":18996738,"CY09_Enplanements":19445952,"CY08_Enplanements":22537950,"Rank":9,"FAA-Region":"WP","ST":"NV","AirportName":"McCarran International"},"geometry":{"type":"Point","coordinates":[-115.1523,36.0801]}},{"type":"Feature","properties":{"Locid":"PHX","City":"Phoenix","CY14_Enplanements":20344867,"CY13_Enplanements":19525109,"CY12_Enplanements":19560870,"CY11_Enplanements":19750306,"CY10_Enplanements":18907171,"CY09_Enplanements":18559647,"CY08_Enplanements":20796173,"Rank":10,"FAA-Region":"WP","ST":"AZ","AirportName":"Phoenix Sky Harbor International"},"geometry":{"type":"Point","coordinates":[-112.0116,33.4343]}}]}